{"type":"FeatureCollection","features":[{"type":"Feature","geometry":{"type":"Point","coordinates":[76.2144349,10.5276416]},"properties":{"state":"Kerala","district":"Thrissur","confirmed":13}},{"type":"Feature","geometry":{"type":"Point","coordinates":[76.3388484,9.498066699999999]},"properties":{"state":"Kerala","district":"Alappuzha","confirmed":5}},{"type":"Feature","geometry":{"type":"Point","coordinates":[74.9869276,12.4995966]},"properties":{"state":"Kerala","district":"Kasaragod","confirmed":169}},{"type":"Feature","geometry":{"type":"Point","coordinates":[76.78704139999999,9.2647582]},"properties":{"state":"Kerala","district":"Pathanamthitta","confirmed":17}},{"type":"Feature","geometry":{"type":"Point","coordinates":[75.37036619999999,11.8744775]},"properties":{"state":"Kerala","district":"Kannur","confirmed":86}},{"type":"Feature","geometry":{"type":"Point","coordinates":[76.2998842,9.9816358]},"properties":{"state":"Kerala","district":"Ernakulam","confirmed":24}},{"type":"Feature","geometry":{"type":"Point","coordinates":[76.5221531,9.591566799999999]},"properties":{"state":"Kerala","district":"Kottayam","confirmed":3}},{"type":"Feature","geometry":{"type":"Point","coordinates":[76.9366376,8.5241391]},"properties":{"state":"Kerala","district":"Thiruvananthapuram","confirmed":14}},{"type":"Feature","geometry":{"type":"Point","coordinates":[76.9527836,9.8583987]},"properties":{"state":"Kerala","district":"Idukki","confirmed":10}},{"type":"Feature","geometry":{"type":"Point","coordinates":[76.0710967,11.0509762]},"properties":{"state":"Kerala","district":"Malappuram","confirmed":20}},{"type":"Feature","geometry":{"type":"Point","coordinates":[75.78041,11.2587531]},"properties":{"state":"Kerala","district":"Kozhikode","confirmed":20}},{"type":"Feature","geometry":{"type":"Point","coordinates":[76.6547932,10.7867303]},"properties":{"state":"Kerala","district":"Palakkad","confirmed":8}},{"type":"Feature","geometry":{"type":"Point","coordinates":[76.1319953,11.6853575]},"properties":{"state":"Kerala","district":"Wayanad","confirmed":3}},{"type":"Feature","geometry":{"type":"Point","coordinates":[76.6141396,8.8932118]},"properties":{"state":"Kerala","district":"Kollam","confirmed":9}},{"type":"Feature","geometry":{"type":"Point","coordinates":[77.29562729999999,28.6279559]},"properties":{"state":"Delhi","district":"East Delhi","confirmed":1}},{"type":"Feature","geometry":{"type":"Point","coordinates":[77.03461639999999,28.5928929]},"properties":{"state":"Delhi","district":"South West Delhi","confirmed":3}},{"type":"Feature","geometry":{"type":"Point","coordinates":[77.067959,28.6663433]},"properties":{"state":"Delhi","district":"West Delhi","confirmed":2}},{"type":"Feature","geometry":{"type":"Point","coordinates":[77.1411602,28.7886037]},"properties":{"state":"Delhi","district":"North Delhi","confirmed":3}},{"type":"Feature","geometry":{"type":"Point","coordinates":[77.2090212,28.6139391]},"properties":{"state":"Delhi","district":"New Delhi","confirmed":5}},{"type":"Feature","geometry":{"type":"Point","coordinates":[77.18728569999999,28.4816551]},"properties":{"state":"Delhi","district":"South Delhi","confirmed":26}},{"type":"Feature","geometry":{"type":"Point","coordinates":[77.2580268,28.7183693]},"properties":{"state":"Delhi","district":"North East Delhi","confirmed":1}},{"type":"Feature","geometry":{"type":"Point","coordinates":[77.0685134,28.7186211]},"properties":{"state":"Delhi","district":"North West Delhi","confirmed":3}},{"type":"Feature","geometry":{"type":"Point","coordinates":[77.3370384,28.5109223]},"properties":{"state":"Delhi","district":"Unknown","confirmed":1959}},{"type":"Feature","geometry":{"type":"Point","coordinates":[78.486671,17.385044]},"properties":{"state":"Telangana","district":"Hyderabad","confirmed":486}},{"type":"Feature","geometry":{"type":"Point","coordinates":[79.1288412,18.4385553]},"properties":{"state":"Telangana","district":"Karimnagar","confirmed":19}},{"type":"Feature","geometry":{"type":"Point","coordinates":[80.6157362,17.5481226]},"properties":{"state":"Telangana","district":"Bhadradri Kothagudem","confirmed":4}},{"type":"Feature","geometry":{"type":"Point","coordinates":[77.8367282,17.3891379]},"properties":{"state":"Telangana","district":"Ranga Reddy","confirmed":25}},{"type":"Feature","geometry":{"type":"Point","coordinates":[78.5855965,17.4139017]},"properties":{"state":"Telangana","district":"Medchal Malkajgiri","confirmed":6}},{"type":"Feature","geometry":{"type":"Point","coordinates":[79.01929969999999,18.1124372]},"properties":{"state":"Telangana","district":"Unknown","confirmed":22}},{"type":"Feature","geometry":{"type":"Point","coordinates":[79.9192702,17.9744395]},"properties":{"state":"Telangana","district":"Warangal Urban","confirmed":21}},{"type":"Feature","geometry":{"type":"Point","coordinates":[77.9048268,17.3364555]},"properties":{"state":"Telangana","district":"Vikarabad","confirmed":37}},{"type":"Feature","geometry":{"type":"Point","coordinates":[78.5320107,19.6640624]},"properties":{"state":"Telangana","district":"Adilabad","confirmed":16}},{"type":"Feature","geometry":{"type":"Point","coordinates":[78.342975,19.0964117]},"properties":{"state":"Telangana","district":"Nirmal","confirmed":17}},{"type":"Feature","geometry":{"type":"Point","coordinates":[78.09408669999999,18.6725047]},"properties":{"state":"Telangana","district":"Nizamabad","confirmed":58}},{"type":"Feature","geometry":{"type":"Point","coordinates":[79.3826826,18.6151461]},"properties":{"state":"Telangana","district":"Peddapalli","confirmed":2}},{"type":"Feature","geometry":{"type":"Point","coordinates":[78.08156269999999,17.6140077]},"properties":{"state":"Telangana","district":"Sangareddy","confirmed":7}},{"type":"Feature","geometry":{"type":"Point","coordinates":[75.83809699999999,25.151066]},"properties":{"state":"Rajasthan","district":"Italians","confirmed":2}},{"type":"Feature","geometry":{"type":"Point","coordinates":[75.7872709,26.9124336]},"properties":{"state":"Rajasthan","district":"Jaipur","confirmed":543}},{"type":"Feature","geometry":{"type":"Point","coordinates":[75.4022233,28.1317038]},"properties":{"state":"Rajasthan","district":"Jhunjhunu","confirmed":39}},{"type":"Feature","geometry":{"type":"Point","coordinates":[74.63131829999999,25.3407388]},"properties":{"state":"Rajasthan","district":"Bhilwara","confirmed":29}},{"type":"Feature","geometry":{"type":"Point","coordinates":[73.02430939999999,26.2389469]},"properties":{"state":"Rajasthan","district":"Jodhpur","confirmed":230}},{"type":"Feature","geometry":{"type":"Point","coordinates":[73.331147,25.7780623]},"properties":{"state":"Rajasthan","district":"Pali","confirmed":2}},{"type":"Feature","geometry":{"type":"Point","coordinates":[75.1397935,27.6093912]},"properties":{"state":"Rajasthan","district":"Sikar","confirmed":2}},{"type":"Feature","geometry":{"type":"Point","coordinates":[74.77873869999999,24.0316509]},"properties":{"state":"Rajasthan","district":"Pratapgarh","confirmed":2}},{"type":"Feature","geometry":{"type":"Point","coordinates":[73.7146623,23.841668]},"properties":{"state":"Rajasthan","district":"Dungarpur","confirmed":5}},{"type":"Feature","geometry":{"type":"Point","coordinates":[74.9707262,28.2925364]},"properties":{"state":"Rajasthan","district":"Churu","confirmed":14}},{"type":"Feature","geometry":{"type":"Point","coordinates":[74.6399163,26.4498954]},"properties":{"state":"Rajasthan","district":"Ajmer","confirmed":24}},{"type":"Feature","geometry":{"type":"Point","coordinates":[74.21793260000001,27.0238036]},"properties":{"state":"Rajasthan","district":"Evacuees","confirmed":8}},{"type":"Feature","geometry":{"type":"Point","coordinates":[76.6345735,27.5529907]},"properties":{"state":"Rajasthan","district":"Alwar","confirmed":7}},{"type":"Feature","geometry":{"type":"Point","coordinates":[75.7962852,26.1659063]},"properties":{"state":"Rajasthan","district":"Tonk","confirmed":95}},{"type":"Feature","geometry":{"type":"Point","coordinates":[77.8907576,26.6965521]},"properties":{"state":"Rajasthan","district":"Dhaulpur","confirmed":1}},{"type":"Feature","geometry":{"type":"Point","coordinates":[73.712479,24.585445]},"properties":{"state":"Rajasthan","district":"Udaipur","confirmed":4}},{"type":"Feature","geometry":{"type":"Point","coordinates":[77.5029996,27.2151863]},"properties":{"state":"Rajasthan","district":"Bharatpur","confirmed":102}},{"type":"Feature","geometry":{"type":"Point","coordinates":[73.3119159,28.0229348]},"properties":{"state":"Rajasthan","district":"Bikaner","confirmed":37}},{"type":"Feature","geometry":{"type":"Point","coordinates":[76.332411,26.8996953]},"properties":{"state":"Rajasthan","district":"Dausa","confirmed":13}},{"type":"Feature","geometry":{"type":"Point","coordinates":[74.4349761,23.5461394]},"properties":{"state":"Rajasthan","district":"Banswara","confirmed":61}},{"type":"Feature","geometry":{"type":"Point","coordinates":[77.01614359999999,26.488323]},"properties":{"state":"Rajasthan","district":"Karauli","confirmed":3}},{"type":"Feature","geometry":{"type":"Point","coordinates":[73.7493272,27.1983368]},"properties":{"state":"Rajasthan","district":"Nagaur","confirmed":59}},{"type":"Feature","geometry":{"type":"Point","coordinates":[70.9083443,26.9157487]},"properties":{"state":"Rajasthan","district":"Jaisalmer","confirmed":32}},{"type":"Feature","geometry":{"type":"Point","coordinates":[75.8647527,25.2138156]},"properties":{"state":"Rajasthan","district":"Kota","confirmed":101}},{"type":"Feature","geometry":{"type":"Point","coordinates":[77.08845,28.495335]},"properties":{"state":"Haryana","district":"Italians","confirmed":14}},{"type":"Feature","geometry":{"type":"Point","coordinates":[77.0266383,28.4594965]},"properties":{"state":"Haryana","district":"Gurugram","confirmed":36}},{"type":"Feature","geometry":{"type":"Point","coordinates":[77.3177894,28.4089123]},"properties":{"state":"Haryana","district":"Faridabad","confirmed":42}},{"type":"Feature","geometry":{"type":"Point","coordinates":[76.9635023,29.3909464]},"properties":{"state":"Haryana","district":"Panipat","confirmed":5}},{"type":"Feature","geometry":{"type":"Point","coordinates":[76.860565,30.6942091]},"properties":{"state":"Haryana","district":"Panchkula","confirmed":17}},{"type":"Feature","geometry":{"type":"Point","coordinates":[77.0150735,28.99308229999999]},"properties":{"state":"Haryana","district":"Sonipat","confirmed":7}},{"type":"Feature","geometry":{"type":"Point","coordinates":[77.3259878,28.1472852]},"properties":{"state":"Haryana","district":"Palwal","confirmed":34}},{"type":"Feature","geometry":{"type":"Point","coordinates":[76.782122,30.3752011]},"properties":{"state":"Haryana","district":"Ambala","confirmed":8}},{"type":"Feature","geometry":{"type":"Point","coordinates":[75.03177339999999,29.5320731]},"properties":{"state":"Haryana","district":"Sirsa","confirmed":4}},{"type":"Feature","geometry":{"type":"Point","coordinates":[75.7216527,29.1491875]},"properties":{"state":"Haryana","district":"Hisar","confirmed":2}},{"type":"Feature","geometry":{"type":"Point","coordinates":[76.606611,28.8955152]},"properties":{"state":"Haryana","district":"Rohtak","confirmed":1}},{"type":"Feature","geometry":{"type":"Point","coordinates":[76.99310740000001,28.1023894]},"properties":{"state":"Haryana","district":"Nuh","confirmed":57}},{"type":"Feature","geometry":{"type":"Point","coordinates":[76.9904825,29.6856929]},"properties":{"state":"Haryana","district":"Karnal","confirmed":6}},{"type":"Feature","geometry":{"type":"Point","coordinates":[76.1322058,28.7974684]},"properties":{"state":"Haryana","district":"Bhiwani","confirmed":2}},{"type":"Feature","geometry":{"type":"Point","coordinates":[76.4039016,29.8042758]},"properties":{"state":"Haryana","district":"Kaithal","confirmed":2}},{"type":"Feature","geometry":{"type":"Point","coordinates":[76.2652909,28.5920617]},"properties":{"state":"Haryana","district":"Charki Dadri","confirmed":1}},{"type":"Feature","geometry":{"type":"Point","coordinates":[78.00807449999999,27.1766701]},"properties":{"state":"Uttar Pradesh","district":"Agra","confirmed":242}},{"type":"Feature","geometry":{"type":"Point","coordinates":[77.45375779999999,28.6691565]},"properties":{"state":"Uttar Pradesh","district":"Ghaziabad","confirmed":41}},{"type":"Feature","geometry":{"type":"Point","coordinates":[80.94616599999999,26.8466937]},"properties":{"state":"Uttar Pradesh","district":"Lucknow","confirmed":162}},{"type":"Feature","geometry":{"type":"Point","coordinates":[77.55076199999999,28.358983]},"properties":{"state":"Uttar Pradesh","district":"Gautam Buddha Nagar","confirmed":95}},{"type":"Feature","geometry":{"type":"Point","coordinates":[80.7787163,27.9462395]},"properties":{"state":"Uttar Pradesh","district":"Kheri","confirmed":4}},{"type":"Feature","geometry":{"type":"Point","coordinates":[78.7733286,28.8386481]},"properties":{"state":"Uttar Pradesh","district":"Moradabad","confirmed":57}},{"type":"Feature","geometry":{"type":"Point","coordinates":[82.9739144,25.3176452]},"properties":{"state":"Uttar Pradesh","district":"Varanasi","confirmed":14}},{"type":"Feature","geometry":{"type":"Point","coordinates":[80.23213129999999,26.4148245]},"properties":{"state":"Uttar Pradesh","district":"Kanpur Nagar","confirmed":30}},{"type":"Feature","geometry":{"type":"Point","coordinates":[79.8075272,28.62494]},"properties":{"state":"Uttar Pradesh","district":"Pilibhit","confirmed":2}},{"type":"Feature","geometry":{"type":"Point","coordinates":[82.68370329999999,25.7464145]},"properties":{"state":"Uttar Pradesh","district":"Jaunpur","confirmed":5}},{"type":"Feature","geometry":{"type":"Point","coordinates":[77.22760699999999,28.9427827]},"properties":{"state":"Uttar Pradesh","district":"Baghpat","confirmed":15}},{"type":"Feature","geometry":{"type":"Point","coordinates":[77.3172046,29.4501986]},"properties":{"state":"Uttar Pradesh","district":"Shamli","confirmed":23}},{"type":"Feature","geometry":{"type":"Point","coordinates":[77.7064137,28.9844618]},"properties":{"state":"Uttar Pradesh","district":"Meerut","confirmed":74}},{"type":"Feature","geometry":{"type":"Point","coordinates":[79.4304381,28.3670355]},"properties":{"state":"Uttar Pradesh","district":"Bareilly","confirmed":6}},{"type":"Feature","geometry":{"type":"Point","coordinates":[77.8498292,28.406963]},"properties":{"state":"Uttar Pradesh","district":"Bulandshahr","confirmed":15}},{"type":"Feature","geometry":{"type":"Point","coordinates":[82.7629893,26.8139844]},"properties":{"state":"Uttar Pradesh","district":"Basti","confirmed":19}},{"type":"Feature","geometry":{"type":"Point","coordinates":[80.1250479,27.3965071]},"properties":{"state":"Uttar Pradesh","district":"Hardoi","confirmed":2}},{"type":"Feature","geometry":{"type":"Point","coordinates":[79.9147268,27.8753399]},"properties":{"state":"Uttar Pradesh","district":"Shahjahanpur","confirmed":1}},{"type":"Feature","geometry":{"type":"Point","coordinates":[78.3957331,27.1591961]},"properties":{"state":"Uttar Pradesh","district":"Firozabad","confirmed":48}},{"type":"Feature","geometry":{"type":"Point","coordinates":[83.18594949999999,26.0739138]},"properties":{"state":"Uttar Pradesh","district":"Azamgarh","confirmed":7}},{"type":"Feature","geometry":{"type":"Point","coordinates":[77.55520659999999,29.9680035]},"properties":{"state":"Uttar Pradesh","district":"Saharanpur","confirmed":72}},{"type":"Feature","geometry":{"type":"Point","coordinates":[81.9452981,25.8973038]},"properties":{"state":"Uttar Pradesh","district":"Pratapgarh","confirmed":6}},{"type":"Feature","geometry":{"type":"Point","coordinates":[77.7758825,28.73057979999999]},"properties":{"state":"Uttar Pradesh","district":"Hapur","confirmed":16}},{"type":"Feature","geometry":{"type":"Point","coordinates":[83.5783078,25.5877901]},"properties":{"state":"Uttar Pradesh","district":"Ghazipur","confirmed":5}},{"type":"Feature","geometry":{"type":"Point","coordinates":[80.3395498,25.4762689]},"properties":{"state":"Uttar Pradesh","district":"Banda","confirmed":3}},{"type":"Feature","geometry":{"type":"Point","coordinates":[83.5621737,27.1446035]},"properties":{"state":"Uttar Pradesh","district":"Mahrajganj","confirmed":6}},{"type":"Feature","geometry":{"type":"Point","coordinates":[78.0492265,27.5980718]},"properties":{"state":"Uttar Pradesh","district":"Hathras","confirmed":4}},{"type":"Feature","geometry":{"type":"Point","coordinates":[78.0492265,27.5980718]},"properties":{"state":"Uttar Pradesh","district":"Hatras","confirmed":4}},{"type":"Feature","geometry":{"type":"Point","coordinates":[82.5644344,25.1336987]},"properties":{"state":"Uttar Pradesh","district":"Mirzapur","confirmed":4}},{"type":"Feature","geometry":{"type":"Point","coordinates":[81.25281389999999,26.2144806]},"properties":{"state":"Uttar Pradesh","district":"Rae Bareli","confirmed":2}},{"type":"Feature","geometry":{"type":"Point","coordinates":[81.1833809,26.9268042]},"properties":{"state":"Uttar Pradesh","district":"Bara Banki","confirmed":1}},{"type":"Feature","geometry":{"type":"Point","coordinates":[79.5112528,26.4605377]},"properties":{"state":"Uttar Pradesh","district":"Auraiya","confirmed":6}},{"type":"Feature","geometry":{"type":"Point","coordinates":[81.40317069999999,25.361054]},"properties":{"state":"Uttar Pradesh","district":"Kaushambi","confirmed":2}},{"type":"Feature","geometry":{"type":"Point","coordinates":[78.1350904,29.3731673]},"properties":{"state":"Uttar Pradesh","district":"Bijnor","confirmed":22}},{"type":"Feature","geometry":{"type":"Point","coordinates":[81.846311,25.4358011]},"properties":{"state":"Uttar Pradesh","district":"Prayagraj","confirmed":1}},{"type":"Feature","geometry":{"type":"Point","coordinates":[80.6789519,27.5680156]},"properties":{"state":"Uttar Pradesh","district":"Sitapur","confirmed":17}},{"type":"Feature","geometry":{"type":"Point","coordinates":[77.57705349999999,34.1525864]},"properties":{"state":"Ladakh","district":"Leh","confirmed":14}},{"type":"Feature","geometry":{"type":"Point","coordinates":[76.1348944,34.5538522]},"properties":{"state":"Ladakh","district":"Kargil","confirmed":4}},{"type":"Feature","geometry":{"type":"Point","coordinates":[79.6946586,12.818456]},"properties":{"state":"Tamil Nadu","district":"Kancheepuram","confirmed":8}},{"type":"Feature","geometry":{"type":"Point","coordinates":[80.2707184,13.0826802]},"properties":{"state":"Tamil Nadu","district":"Chennai","confirmed":290}},{"type":"Feature","geometry":{"type":"Point","coordinates":[77.7171642,11.3410364]},"properties":{"state":"Tamil Nadu","district":"Erode","confirmed":70}},{"type":"Feature","geometry":{"type":"Point","coordinates":[76.9558321,11.0168445]},"properties":{"state":"Tamil Nadu","district":"Coimbatore","confirmed":133}},{"type":"Feature","geometry":{"type":"Point","coordinates":[77.7566523,8.713912600000002]},"properties":{"state":"Tamil Nadu","district":"Tirunelveli","confirmed":64}},{"type":"Feature","geometry":{"type":"Point","coordinates":[77.3410656,11.1085242]},"properties":{"state":"Tamil Nadu","district":"Tiruppur","confirmed":108}},{"type":"Feature","geometry":{"type":"Point","coordinates":[78.1197754,9.9252007]},"properties":{"state":"Tamil Nadu","district":"Madurai","confirmed":46}},{"type":"Feature","geometry":{"type":"Point","coordinates":[78.1460142,11.664325]},"properties":{"state":"Tamil Nadu","district":"Salem","confirmed":24}},{"type":"Feature","geometry":{"type":"Point","coordinates":[79.13249859999999,12.9165167]},"properties":{"state":"Tamil Nadu","district":"Vellore","confirmed":23}},{"type":"Feature","geometry":{"type":"Point","coordinates":[78.7046725,10.7904833]},"properties":{"state":"Tamil Nadu","district":"Tiruchirappalli","confirmed":46}},{"type":"Feature","geometry":{"type":"Point","coordinates":[79.98884129999999,12.6819372]},"properties":{"state":"Tamil Nadu","district":"Chengalpattu","confirmed":50}},{"type":"Feature","geometry":{"type":"Point","coordinates":[79.13782739999999,10.7869994]},"properties":{"state":"Tamil Nadu","district":"Thanjavur","confirmed":45}},{"type":"Feature","geometry":{"type":"Point","coordinates":[77.96244349999999,9.5680116]},"properties":{"state":"Tamil Nadu","district":"Virudhunagar","confirmed":19}},{"type":"Feature","geometry":{"type":"Point","coordinates":[78.07660360000001,10.9600778]},"properties":{"state":"Tamil Nadu","district":"Karur","confirmed":41}},{"type":"Feature","geometry":{"type":"Point","coordinates":[79.07469569999999,12.2252841]},"properties":{"state":"Tamil Nadu","district":"Tiruvannamalai","confirmed":8}},{"type":"Feature","geometry":{"type":"Point","coordinates":[79.4861449,11.9401378]},"properties":{"state":"Tamil Nadu","district":"Viluppuram","confirmed":37}},{"type":"Feature","geometry":{"type":"Point","coordinates":[78.1673575,11.2188958]},"properties":{"state":"Tamil Nadu","district":"Namakkal","confirmed":50}},{"type":"Feature","geometry":{"type":"Point","coordinates":[77.5384507,8.0883064]},"properties":{"state":"Tamil Nadu","district":"Kanniyakumari","confirmed":16}},{"type":"Feature","geometry":{"type":"Point","coordinates":[78.1348361,8.764166099999999]},"properties":{"state":"Tamil Nadu","district":"Thoothukkudi","confirmed":26}},{"type":"Feature","geometry":{"type":"Point","coordinates":[77.4768115,10.0103658]},"properties":{"state":"Tamil Nadu","district":"Theni","confirmed":44}},{"type":"Feature","geometry":{"type":"Point","coordinates":[77.9694579,10.3623794]},"properties":{"state":"Tamil Nadu","district":"Dindigul","confirmed":74}},{"type":"Feature","geometry":{"type":"Point","coordinates":[78.48087749999999,9.8432999]},"properties":{"state":"Tamil Nadu","district":"Sivaganga","confirmed":11}},{"type":"Feature","geometry":{"type":"Point","coordinates":[79.57298689999999,10.588265]},"properties":{"state":"Tamil Nadu","district":"Tirupathur","confirmed":17}},{"type":"Feature","geometry":{"type":"Point","coordinates":[79.6343691,10.7661312]},"properties":{"state":"Tamil Nadu","district":"Thiruvarur","confirmed":27}},{"type":"Feature","geometry":{"type":"Point","coordinates":[79.318978,12.9487403]},"properties":{"state":"Tamil Nadu","district":"Ranipet","confirmed":38}},{"type":"Feature","geometry":{"type":"Point","coordinates":[78.8394819,9.3639356]},"properties":{"state":"Tamil Nadu","district":"Ramanathapuram","confirmed":10}},{"type":"Feature","geometry":{"type":"Point","coordinates":[79.9119526,13.1230558]},"properties":{"state":"Tamil Nadu","district":"Thiruvallur","confirmed":47}},{"type":"Feature","geometry":{"type":"Point","coordinates":[79.8448512,10.7672313]},"properties":{"state":"Tamil Nadu","district":"Nagapattinam","confirmed":43}},{"type":"Feature","geometry":{"type":"Point","coordinates":[79.7713687,11.7480419]},"properties":{"state":"Tamil Nadu","district":"Cuddalore","confirmed":26}},{"type":"Feature","geometry":{"type":"Point","coordinates":[78.9638899,11.7383735]},"properties":{"state":"Tamil Nadu","district":"Kallakurichi","confirmed":3}},{"type":"Feature","geometry":{"type":"Point","coordinates":[78.8806852,11.2342104]},"properties":{"state":"Tamil Nadu","district":"Perambalur","confirmed":4}},{"type":"Feature","geometry":{"type":"Point","coordinates":[76.7336521,11.4916043]},"properties":{"state":"Tamil Nadu","district":"The Nilgiris","confirmed":9}},{"type":"Feature","geometry":{"type":"Point","coordinates":[79.0786281,11.1400585]},"properties":{"state":"Tamil Nadu","district":"Ariyalur","confirmed":1}},{"type":"Feature","geometry":{"type":"Point","coordinates":[74.8570259,32.7266016]},"properties":{"state":"Jammu and Kashmir","district":"Jammu","confirmed":26}},{"type":"Feature","geometry":{"type":"Point","coordinates":[74.7972825,34.0836708]},"properties":{"state":"Jammu and Kashmir","district":"Srinagar","confirmed":78}},{"type":"Feature","geometry":{"type":"Point","coordinates":[74.6868815,34.5052269]},"properties":{"state":"Jammu and Kashmir","district":"Bandipore","confirmed":83}},{"type":"Feature","geometry":{"type":"Point","coordinates":[76.57617139999999,33.778175]},"properties":{"state":"Jammu and Kashmir","district":"Unknown","confirmed":9}},{"type":"Feature","geometry":{"type":"Point","coordinates":[74.315191,33.3716143]},"properties":{"state":"Jammu and Kashmir","district":"Rajouri","confirmed":3}},{"type":"Feature","geometry":{"type":"Point","coordinates":[74.64004320000001,33.9348549]},"properties":{"state":"Jammu and Kashmir","district":"Badgam","confirmed":14}},{"type":"Feature","geometry":{"type":"Point","coordinates":[74.35874729999999,34.1595145]},"properties":{"state":"Jammu and Kashmir","district":"Baramula","confirmed":43}},{"type":"Feature","geometry":{"type":"Point","coordinates":[74.8039205,33.7593643]},"properties":{"state":"Jammu and Kashmir","district":"Shupiyan","confirmed":22}},{"type":"Feature","geometry":{"type":"Point","coordinates":[75.1416173,32.9159847]},"properties":{"state":"Jammu and Kashmir","district":"Udhampur","confirmed":20}},{"type":"Feature","geometry":{"type":"Point","coordinates":[77.5945627,12.9715987]},"properties":{"state":"Karnataka","district":"Bengaluru","confirmed":100}},{"type":"Feature","geometry":{"type":"Point","coordinates":[76.8342957,17.329731]},"properties":{"state":"Karnataka","district":"Kalaburagi","confirmed":22}},{"type":"Feature","geometry":{"type":"Point","coordinates":[75.8069082,12.3374942]},"properties":{"state":"Karnataka","district":"Kodagu","confirmed":1}},{"type":"Feature","geometry":{"type":"Point","coordinates":[77.7315344,13.4354985]},"properties":{"state":"Karnataka","district":"Chikkaballapura","confirmed":13}},{"type":"Feature","geometry":{"type":"Point","coordinates":[76.6393805,12.2958104]},"properties":{"state":"Karnataka","district":"Mysuru","confirmed":84}},{"type":"Feature","geometry":{"type":"Point","coordinates":[75.007808,15.4589236]},"properties":{"state":"Karnataka","district":"Dharwad","confirmed":7}},{"type":"Feature","geometry":{"type":"Point","coordinates":[74.6868815,14.7937065]},"properties":{"state":"Karnataka","district":"Uttara Kannada","confirmed":10}},{"type":"Feature","geometry":{"type":"Point","coordinates":[75.2479061,12.8437814]},"properties":{"state":"Karnataka","district":"Dakshina Kannada","confirmed":15}},{"type":"Feature","geometry":{"type":"Point","coordinates":[74.7421427,13.3408807]},"properties":{"state":"Karnataka","district":"Udupi","confirmed":3}},{"type":"Feature","geometry":{"type":"Point","coordinates":[76.3980464,14.2250932]},"properties":{"state":"Karnataka","district":"Chitradurga","confirmed":1}},{"type":"Feature","geometry":{"type":"Point","coordinates":[77.117325,13.3378762]},"properties":{"state":"Karnataka","district":"Tumakuru","confirmed":1}},{"type":"Feature","geometry":{"type":"Point","coordinates":[75.921758,14.4644085]},"properties":{"state":"Karnataka","district":"Davanagere","confirmed":3}},{"type":"Feature","geometry":{"type":"Point","coordinates":[76.9214428,15.1393932]},"properties":{"state":"Karnataka","district":"Ballari","confirmed":13}},{"type":"Feature","geometry":{"type":"Point","coordinates":[77.51990789999999,17.9103939]},"properties":{"state":"Karnataka","district":"Bidar","confirmed":14}},{"type":"Feature","geometry":{"type":"Point","coordinates":[75.6615029,16.1691096]},"properties":{"state":"Karnataka","district":"Bagalkote","confirmed":21}},{"type":"Feature","geometry":{"type":"Point","coordinates":[74.4976741,15.8496953]},"properties":{"state":"Karnataka","district":"Belagavi","confirmed":42}},{"type":"Feature","geometry":{"type":"Point","coordinates":[77.6077865,13.2846993]},"properties":{"state":"Karnataka","district":"Bengaluru Rural","confirmed":5}},{"type":"Feature","geometry":{"type":"Point","coordinates":[75.63551489999999,15.4315406]},"properties":{"state":"Karnataka","district":"Gadag","confirmed":3}},{"type":"Feature","geometry":{"type":"Point","coordinates":[76.89514880000002,12.5218157]},"properties":{"state":"Karnataka","district":"Mandya","confirmed":12}},{"type":"Feature","geometry":{"type":"Point","coordinates":[73.8567437,18.5204303]},"properties":{"state":"Maharashtra","district":"Pune","confirmed":591}},{"type":"Feature","geometry":{"type":"Point","coordinates":[72.8776559,19.0759837]},"properties":{"state":"Maharashtra","district":"Mumbai","confirmed":2268}},{"type":"Feature","geometry":{"type":"Point","coordinates":[79.0881546,21.1458004]},"properties":{"state":"Maharashtra","district":"Nagpur","confirmed":60}},{"type":"Feature","geometry":{"type":"Point","coordinates":[72.9780897,19.2183307]},"properties":{"state":"Maharashtra","district":"Thane","confirmed":341}},{"type":"Feature","geometry":{"type":"Point","coordinates":[74.74797889999999,19.0948287]},"properties":{"state":"Maharashtra","district":"Ahmadnagar","confirmed":29}},{"type":"Feature","geometry":{"type":"Point","coordinates":[78.1306846,20.3899385]},"properties":{"state":"Maharashtra","district":"Yavatmal","confirmed":13}},{"type":"Feature","geometry":{"type":"Point","coordinates":[75.3433139,19.8761653]},"properties":{"state":"Maharashtra","district":"Aurangabad","confirmed":28}},{"type":"Feature","geometry":{"type":"Point","coordinates":[73.31202329999999,16.990215]},"properties":{"state":"Maharashtra","district":"Ratnagiri","confirmed":6}},{"type":"Feature","geometry":{"type":"Point","coordinates":[74.5814773,16.8523973]},"properties":{"state":"Maharashtra","district":"Sangli","confirmed":26}},{"type":"Feature","geometry":{"type":"Point","coordinates":[74.018261,17.6804639]},"properties":{"state":"Maharashtra","district":"Satara","confirmed":11}},{"type":"Feature","geometry":{"type":"Point","coordinates":[73.55941279999999,16.3492193]},"properties":{"state":"Maharashtra","district":"Sindhudurg","confirmed":1}},{"type":"Feature","geometry":{"type":"Point","coordinates":[80.19607119999999,21.4549477]},"properties":{"state":"Maharashtra","district":"Gondiya","confirmed":1}},{"type":"Feature","geometry":{"type":"Point","coordinates":[74.24325270000001,16.7049873]},"properties":{"state":"Maharashtra","district":"Kolhapur","confirmed":5}},{"type":"Feature","geometry":{"type":"Point","coordinates":[72.6638991,23.0109997]},"properties":{"state":"Maharashtra","district":"Gujarat*","confirmed":2}},{"type":"Feature","geometry":{"type":"Point","coordinates":[75.5626039,21.0076578]},"properties":{"state":"Maharashtra","district":"Jalgaon","confirmed":2}},{"type":"Feature","geometry":{"type":"Point","coordinates":[76.1841701,20.5292147]},"properties":{"state":"Maharashtra","district":"Buldana","confirmed":21}},{"type":"Feature","geometry":{"type":"Point","coordinates":[73.78980229999999,19.9974533]},"properties":{"state":"Maharashtra","district":"Nashik","confirmed":53}},{"type":"Feature","geometry":{"type":"Point","coordinates":[76.0419642,18.185332]},"properties":{"state":"Maharashtra","district":"Osmanabad","confirmed":3}},{"type":"Feature","geometry":{"type":"Point","coordinates":[77.1312586,20.1119123]},"properties":{"state":"Maharashtra","district":"Washim","confirmed":1}},{"type":"Feature","geometry":{"type":"Point","coordinates":[77.1493722,19.7173703]},"properties":{"state":"Maharashtra","district":"Hingoli","confirmed":1}},{"type":"Feature","geometry":{"type":"Point","coordinates":[77.7523039,20.9319821]},"properties":{"state":"Maharashtra","district":"Amravati","confirmed":6}},{"type":"Feature","geometry":{"type":"Point","coordinates":[76.5603828,18.4087934]},"properties":{"state":"Maharashtra","district":"Latur","confirmed":8}},{"type":"Feature","geometry":{"type":"Point","coordinates":[75.88163449999999,19.8346659]},"properties":{"state":"Maharashtra","district":"Jalna","confirmed":2}},{"type":"Feature","geometry":{"type":"Point","coordinates":[74.8722642,31.6339793]},"properties":{"state":"Punjab","district":"Amritsar","confirmed":11}},{"type":"Feature","geometry":{"type":"Point","coordinates":[76.118642,31.1255583]},"properties":{"state":"Punjab","district":"Shahid Bhagat Singh Nagar","confirmed":19}},{"type":"Feature","geometry":{"type":"Point","coordinates":[76.71787259999999,30.7046486]},"properties":{"state":"Punjab","district":"S.A.S. Nagar","confirmed":61}},{"type":"Feature","geometry":{"type":"Point","coordinates":[75.911483,31.5143178]},"properties":{"state":"Punjab","district":"Hoshiarpur","confirmed":7}},{"type":"Feature","geometry":{"type":"Point","coordinates":[75.57618289999999,31.3260152]},"properties":{"state":"Punjab","district":"Jalandhar","confirmed":47}},{"type":"Feature","geometry":{"type":"Point","coordinates":[75.8572758,30.900965]},"properties":{"state":"Punjab","district":"Ludhiana","confirmed":15}},{"type":"Feature","geometry":{"type":"Point","coordinates":[76.3868797,30.3397809]},"properties":{"state":"Punjab","district":"Patiala","confirmed":26}},{"type":"Feature","geometry":{"type":"Point","coordinates":[76.5230961,30.9661003]},"properties":{"state":"Punjab","district":"Rupnagar","confirmed":3}},{"type":"Feature","geometry":{"type":"Point","coordinates":[75.3936808,29.9995069]},"properties":{"state":"Punjab","district":"Mansa","confirmed":11}},{"type":"Feature","geometry":{"type":"Point","coordinates":[75.6522066,32.2733352]},"properties":{"state":"Punjab","district":"Pathankot","confirmed":24}},{"type":"Feature","geometry":{"type":"Point","coordinates":[74.7583351,30.6769462]},"properties":{"state":"Punjab","district":"Faridkot","confirmed":3}},{"type":"Feature","geometry":{"type":"Point","coordinates":[75.5467979,30.3819446]},"properties":{"state":"Punjab","district":"Barnala","confirmed":2}},{"type":"Feature","geometry":{"type":"Point","coordinates":[76.39703,30.6435345]},"properties":{"state":"Punjab","district":"Fatehgarh Sahib","confirmed":2}},{"type":"Feature","geometry":{"type":"Point","coordinates":[75.4017654,31.3722571]},"properties":{"state":"Punjab","district":"Kapurthala","confirmed":2}},{"type":"Feature","geometry":{"type":"Point","coordinates":[75.17344709999999,30.8230114]},"properties":{"state":"Punjab","district":"Moga","confirmed":4}},{"type":"Feature","geometry":{"type":"Point","coordinates":[75.34121789999999,31.1471305]},"properties":{"state":"Punjab","district":"Unknown","confirmed":6}},{"type":"Feature","geometry":{"type":"Point","coordinates":[79.9192702,14.2580848]},"properties":{"state":"Andhra Pradesh","district":"S.P.S. Nellore","confirmed":68}},{"type":"Feature","geometry":{"type":"Point","coordinates":[79.560344,15.348463]},"properties":{"state":"Andhra Pradesh","district":"Prakasam","confirmed":44}},{"type":"Feature","geometry":{"type":"Point","coordinates":[83.2184815,17.6868159]},"properties":{"state":"Andhra Pradesh","district":"Visakhapatnam","confirmed":21}},{"type":"Feature","geometry":{"type":"Point","coordinates":[82.0407137,17.32125]},"properties":{"state":"Andhra Pradesh","district":"East Godavari","confirmed":24}},{"type":"Feature","geometry":{"type":"Point","coordinates":[80.7214417,16.6099914]},"properties":{"state":"Andhra Pradesh","district":"Krishna","confirmed":75}},{"type":"Feature","geometry":{"type":"Point","coordinates":[79.1003289,13.217176]},"properties":{"state":"Andhra Pradesh","district":"Chittoor","confirmed":28}},{"type":"Feature","geometry":{"type":"Point","coordinates":[80.4365402,16.3066525]},"properties":{"state":"Andhra Pradesh","district":"Guntur","confirmed":128}},{"type":"Feature","geometry":{"type":"Point","coordinates":[78.0372792,15.8281257]},"properties":{"state":"Andhra Pradesh","district":"Kurnool","confirmed":158}},{"type":"Feature","geometry":{"type":"Point","coordinates":[77.6005911,14.6818877]},"properties":{"state":"Andhra Pradesh","district":"Anantapur","confirmed":29}},{"type":"Feature","geometry":{"type":"Point","coordinates":[81.3399414,16.9174181]},"properties":{"state":"Andhra Pradesh","district":"West Godavari","confirmed":35}},{"type":"Feature","geometry":{"type":"Point","coordinates":[78.8269995,14.4651817]},"properties":{"state":"Andhra Pradesh","district":"Y.S.R.","confirmed":37}},{"type":"Feature","geometry":{"type":"Point","coordinates":[78.03219179999999,30.3164945]},"properties":{"state":"Uttarakhand","district":"Dehradun","confirmed":22}},{"type":"Feature","geometry":{"type":"Point","coordinates":[78.8382644,29.8687682]},"properties":{"state":"Uttarakhand","district":"Pauri Garhwal","confirmed":1}},{"type":"Feature","geometry":{"type":"Point","coordinates":[79.5153773,28.9609653]},"properties":{"state":"Uttarakhand","district":"Udham Singh Nagar","confirmed":4}},{"type":"Feature","geometry":{"type":"Point","coordinates":[79.4542033,29.3919202]},"properties":{"state":"Uttarakhand","district":"Nainital","confirmed":9}},{"type":"Feature","geometry":{"type":"Point","coordinates":[78.16424780000001,29.9456906]},"properties":{"state":"Uttarakhand","district":"Haridwar","confirmed":7}},{"type":"Feature","geometry":{"type":"Point","coordinates":[79.646666,29.5892407]},"properties":{"state":"Uttarakhand","district":"Almora","confirmed":1}},{"type":"Feature","geometry":{"type":"Point","coordinates":[79.01929969999999,30.066753]},"properties":{"state":"Uttarakhand","district":"Unknown","confirmed":2}},{"type":"Feature","geometry":{"type":"Point","coordinates":[85.62227419999999,20.1862584]},"properties":{"state":"Odisha","district":"Khordha","confirmed":46}},{"type":"Feature","geometry":{"type":"Point","coordinates":[86.4962996,21.0573616]},"properties":{"state":"Odisha","district":"Bhadrak","confirmed":3}},{"type":"Feature","geometry":{"type":"Point","coordinates":[85.8829895,20.462521]},"properties":{"state":"Odisha","district":"Cuttack","confirmed":1}},{"type":"Feature","geometry":{"type":"Point","coordinates":[85.8312359,19.8134554]},"properties":{"state":"Odisha","district":"Puri","confirmed":1}},{"type":"Feature","geometry":{"type":"Point","coordinates":[86.3326058,20.8341019]},"properties":{"state":"Odisha","district":"Jajapur","confirmed":2}},{"type":"Feature","geometry":{"type":"Point","coordinates":[83.1649001,19.9137363]},"properties":{"state":"Odisha","district":"Kalahandi","confirmed":2}},{"type":"Feature","geometry":{"type":"Point","coordinates":[86.4288534,20.4969108]},"properties":{"state":"Odisha","district":"Kendrapara","confirmed":2}},{"type":"Feature","geometry":{"type":"Point","coordinates":[75.5424843,11.7002703]},"properties":{"state":"Puducherry","district":"Mahe","confirmed":1}},{"type":"Feature","geometry":{"type":"Point","coordinates":[79.8083133,11.9415915]},"properties":{"state":"Puducherry","district":"Puducherry","confirmed":6}},{"type":"Feature","geometry":{"type":"Point","coordinates":[88.36389500000001,22.572646]},"properties":{"state":"West Bengal","district":"Kolkata","confirmed":11}},{"type":"Feature","geometry":{"type":"Point","coordinates":[88.402895,22.6168099]},"properties":{"state":"West Bengal","district":"North 24 Parganas","confirmed":4}},{"type":"Feature","geometry":{"type":"Point","coordinates":[88.55653099999999,23.4709656]},"properties":{"state":"West Bengal","district":"Nadia","confirmed":5}},{"type":"Feature","geometry":{"type":"Point","coordinates":[87.77633329999999,21.9372879]},"properties":{"state":"West Bengal","district":"Medinipur East","confirmed":3}},{"type":"Feature","geometry":{"type":"Point","coordinates":[88.46945350000001,27.0593562]},"properties":{"state":"West Bengal","district":"Kalimpong","confirmed":1}},{"type":"Feature","geometry":{"type":"Point","coordinates":[88.3898552,22.9011588]},"properties":{"state":"West Bengal","district":"Hooghly","confirmed":1}},{"type":"Feature","geometry":{"type":"Point","coordinates":[88.26363940000002,22.5957689]},"properties":{"state":"West Bengal","district":"Howrah","confirmed":1}},{"type":"Feature","geometry":{"type":"Point","coordinates":[88.4016041,22.1352378]},"properties":{"state":"West Bengal","district":"South 24 Parganas","confirmed":1}},{"type":"Feature","geometry":{"type":"Point","coordinates":[88.5164125,22.6233506]},"properties":{"state":"West Bengal","district":"Unknown","confirmed":312}},{"type":"Feature","geometry":{"type":"Point","coordinates":[76.7794179,30.7333148]},"properties":{"state":"Chandigarh","district":"Chandigarh","confirmed":23}},{"type":"Feature","geometry":{"type":"Point","coordinates":[81.62964130000002,21.2513844]},"properties":{"state":"Chhattisgarh","district":"Raipur","confirmed":5}},{"type":"Feature","geometry":{"type":"Point","coordinates":[81.03375009999999,21.0972123]},"properties":{"state":"Chhattisgarh","district":"Rajnandgaon","confirmed":1}},{"type":"Feature","geometry":{"type":"Point","coordinates":[82.1409152,22.0796545]},"properties":{"state":"Chhattisgarh","district":"Bilaspur","confirmed":1}},{"type":"Feature","geometry":{"type":"Point","coordinates":[81.2849169,21.1904494]},"properties":{"state":"Chhattisgarh","district":"Durg","confirmed":1}},{"type":"Feature","geometry":{"type":"Point","coordinates":[82.75005949999999,22.3594501]},"properties":{"state":"Chhattisgarh","district":"Korba","confirmed":28}},{"type":"Feature","geometry":{"type":"Point","coordinates":[70.80215989999999,22.3038945]},"properties":{"state":"Gujarat","district":"Rajkot","confirmed":36}},{"type":"Feature","geometry":{"type":"Point","coordinates":[72.83106070000001,21.1702401]},"properties":{"state":"Gujarat","district":"Surat","confirmed":242}},{"type":"Feature","geometry":{"type":"Point","coordinates":[72.5713621,23.022505]},"properties":{"state":"Gujarat","district":"Ahmadabad","confirmed":1101}},{"type":"Feature","geometry":{"type":"Point","coordinates":[73.1812187,22.3071588]},"properties":{"state":"Gujarat","district":"Vadodara","confirmed":180}},{"type":"Feature","geometry":{"type":"Point","coordinates":[72.63694149999999,23.2156354]},"properties":{"state":"Gujarat","district":"Gandhinagar","confirmed":17}},{"type":"Feature","geometry":{"type":"Point","coordinates":[69.8597406,23.7337326]},"properties":{"state":"Gujarat","district":"Kachchh","confirmed":4}},{"type":"Feature","geometry":{"type":"Point","coordinates":[72.36932519999999,23.5879607]},"properties":{"state":"Gujarat","district":"Mahesana","confirmed":5}},{"type":"Feature","geometry":{"type":"Point","coordinates":[72.15193040000001,21.7644725]},"properties":{"state":"Gujarat","district":"Bhavnagar","confirmed":32}},{"type":"Feature","geometry":{"type":"Point","coordinates":[69.62930589999999,21.6416979]},"properties":{"state":"Gujarat","district":"Porbandar","confirmed":3}},{"type":"Feature","geometry":{"type":"Point","coordinates":[70.7168469,21.0119385]},"properties":{"state":"Gujarat","district":"Gir Somnath","confirmed":2}},{"type":"Feature","geometry":{"type":"Point","coordinates":[73.55941279999999,22.8011177]},"properties":{"state":"Gujarat","district":"Panch Mahals","confirmed":9}},{"type":"Feature","geometry":{"type":"Point","coordinates":[72.1210274,23.8500156]},"properties":{"state":"Gujarat","district":"Patan","confirmed":15}},{"type":"Feature","geometry":{"type":"Point","coordinates":[74.0119993,22.3084941]},"properties":{"state":"Gujarat","district":"Chota Udaipur","confirmed":7}},{"type":"Feature","geometry":{"type":"Point","coordinates":[70.05773,22.4707019]},"properties":{"state":"Gujarat","district":"Jamnagar","confirmed":1}},{"type":"Feature","geometry":{"type":"Point","coordinates":[70.84908089999999,22.8251874]},"properties":{"state":"Gujarat","district":"Morbi","confirmed":1}},{"type":"Feature","geometry":{"type":"Point","coordinates":[72.928871,22.5645175]},"properties":{"state":"Gujarat","district":"Anand","confirmed":28}},{"type":"Feature","geometry":{"type":"Point","coordinates":[72.99329689999999,23.8476704]},"properties":{"state":"Gujarat","district":"Sabar Kantha","confirmed":2}},{"type":"Feature","geometry":{"type":"Point","coordinates":[76.2691006,32.0998031]},"properties":{"state":"Himachal Pradesh","district":"Kangra","confirmed":5}},{"type":"Feature","geometry":{"type":"Point","coordinates":[76.2708152,31.4684649]},"properties":{"state":"Himachal Pradesh","district":"Una","confirmed":15}},{"type":"Feature","geometry":{"type":"Point","coordinates":[77.118044,31.1033096]},"properties":{"state":"Himachal Pradesh","district":"Unknown","confirmed":3}},{"type":"Feature","geometry":{"type":"Point","coordinates":[79.9864071,23.181467]},"properties":{"state":"Madhya Pradesh","district":"Jabalpur","confirmed":13}},{"type":"Feature","geometry":{"type":"Point","coordinates":[77.412615,23.2599333]},"properties":{"state":"Madhya Pradesh","district":"Bhopal","confirmed":197}},{"type":"Feature","geometry":{"type":"Point","coordinates":[75.8577258,22.7195687]},"properties":{"state":"Madhya Pradesh","district":"Indore","confirmed":841}},{"type":"Feature","geometry":{"type":"Point","coordinates":[75.7885163,23.1764665]},"properties":{"state":"Madhya Pradesh","district":"Ujjain","confirmed":31}},{"type":"Feature","geometry":{"type":"Point","coordinates":[78.18283079999999,26.2182871]},"properties":{"state":"Madhya Pradesh","district":"Gwalior","confirmed":6}},{"type":"Feature","geometry":{"type":"Point","coordinates":[77.66438149999999,25.4320478]},"properties":{"state":"Madhya Pradesh","district":"Shivpuri","confirmed":2}},{"type":"Feature","geometry":{"type":"Point","coordinates":[78.9381729,22.057437]},"properties":{"state":"Madhya Pradesh","district":"Chhindwara","confirmed":4}},{"type":"Feature","geometry":{"type":"Point","coordinates":[77.9940222,26.4947172]},"properties":{"state":"Madhya Pradesh","district":"Morena","confirmed":14}},{"type":"Feature","geometry":{"type":"Point","coordinates":[75.61498929999999,21.8335244]},"properties":{"state":"Madhya Pradesh","district":"Khargone","confirmed":39}},{"type":"Feature","geometry":{"type":"Point","coordinates":[74.903339,22.0363157]},"properties":{"state":"Madhya Pradesh","district":"Barwani","confirmed":22}},{"type":"Feature","geometry":{"type":"Point","coordinates":[77.8960201,21.9011601]},"properties":{"state":"Madhya Pradesh","district":"Betul","confirmed":2}},{"type":"Feature","geometry":{"type":"Point","coordinates":[77.81397179999999,23.5235719]},"properties":{"state":"Madhya Pradesh","district":"Vidisha","confirmed":13}},{"type":"Feature","geometry":{"type":"Point","coordinates":[78.6568942,22.9734229]},"properties":{"state":"Madhya Pradesh","district":"Unknown","confirmed":97}},{"type":"Feature","geometry":{"type":"Point","coordinates":[86.47339029999999,25.3707993]},"properties":{"state":"Bihar","district":"Munger","confirmed":20}},{"type":"Feature","geometry":{"type":"Point","coordinates":[85.1375645,25.5940947]},"properties":{"state":"Bihar","district":"Patna","confirmed":7}},{"type":"Feature","geometry":{"type":"Point","coordinates":[84.3599953,26.2243204]},"properties":{"state":"Bihar","district":"Siwan","confirmed":29}},{"type":"Feature","geometry":{"type":"Point","coordinates":[85.45947489999999,25.1240603]},"properties":{"state":"Bihar","district":"Nalanda","confirmed":11}},{"type":"Feature","geometry":{"type":"Point","coordinates":[86.0951592,25.1571454]},"properties":{"state":"Bihar","district":"Lakhisarai","confirmed":1}},{"type":"Feature","geometry":{"type":"Point","coordinates":[84.43655,26.4831584]},"properties":{"state":"Bihar","district":"Gopalganj","confirmed":3}},{"type":"Feature","geometry":{"type":"Point","coordinates":[85.0002336,24.7913957]},"properties":{"state":"Bihar","district":"Gaya","confirmed":5}},{"type":"Feature","geometry":{"type":"Point","coordinates":[86.1271542,25.4181638]},"properties":{"state":"Bihar","district":"Begusarai","confirmed":9}},{"type":"Feature","geometry":{"type":"Point","coordinates":[84.8567932,25.8559698]},"properties":{"state":"Bihar","district":"Saran","confirmed":1}},{"type":"Feature","geometry":{"type":"Point","coordinates":[86.9842256,25.242453]},"properties":{"state":"Bihar","district":"Bhagalpur","confirmed":1}},{"type":"Feature","geometry":{"type":"Point","coordinates":[93.88589549999999,24.7827837]},"properties":{"state":"Manipur","district":"Imphal West","confirmed":1}},{"type":"Feature","geometry":{"type":"Point","coordinates":[93.90626879999999,24.6637173]},"properties":{"state":"Manipur","district":"Unknown","confirmed":1}},{"type":"Feature","geometry":{"type":"Point","coordinates":[92.71731059999999,23.7307175]},"properties":{"state":"Mizoram","district":"Aizawl","confirmed":1}},{"type":"Feature","geometry":{"type":"Point","coordinates":[73.98300290000002,15.5163112]},"properties":{"state":"Goa","district":"North Goa","confirmed":4}},{"type":"Feature","geometry":{"type":"Point","coordinates":[74.20916509999999,15.0941858]},"properties":{"state":"Goa","district":"Unknown","confirmed":3}},{"type":"Feature","geometry":{"type":"Point","coordinates":[92.6586401,11.8311681]},"properties":{"state":"Andaman and Nicobar Islands","district":"South Andaman","confirmed":14}},{"type":"Feature","geometry":{"type":"Point","coordinates":[92.8976254,12.6518832]},"properties":{"state":"Andaman and Nicobar Islands","district":"North and Middle Andaman","confirmed":1}},{"type":"Feature","geometry":{"type":"Point","coordinates":[92.70146489999999,11.5059682]},"properties":{"state":"Andaman and Nicobar Islands","district":"Unknown","confirmed":6}},{"type":"Feature","geometry":{"type":"Point","coordinates":[85.309562,23.3440997]},"properties":{"state":"Jharkhand","district":"Ranchi","confirmed":24}},{"type":"Feature","geometry":{"type":"Point","coordinates":[85.3636758,23.9924669]},"properties":{"state":"Jharkhand","district":"Hazaribagh","confirmed":2}},{"type":"Feature","geometry":{"type":"Point","coordinates":[86.15111200000001,23.6692956]},"properties":{"state":"Jharkhand","district":"Bokaro","confirmed":9}},{"type":"Feature","geometry":{"type":"Point","coordinates":[92.8577105,24.7821253]},"properties":{"state":"Assam","district":"Cachar","confirmed":2}},{"type":"Feature","geometry":{"type":"Point","coordinates":[91.63721500000001,26.0794316]},"properties":{"state":"Assam","district":"Kamrup Metropolitan","confirmed":6}},{"type":"Feature","geometry":{"type":"Point","coordinates":[94.2036696,26.7509207]},"properties":{"state":"Assam","district":"Jorhat","confirmed":8}},{"type":"Feature","geometry":{"type":"Point","coordinates":[90.62515409999999,26.1641342]},"properties":{"state":"Assam","district":"Goalpara","confirmed":4}},{"type":"Feature","geometry":{"type":"Point","coordinates":[91.4410527,26.4446185]},"properties":{"state":"Assam","district":"Nalbari","confirmed":3}},{"type":"Feature","geometry":{"type":"Point","coordinates":[89.8622017,25.5354761]},"properties":{"state":"Assam","district":"South Salmara Mancachar","confirmed":1}},{"type":"Feature","geometry":{"type":"Point","coordinates":[91.5983959,26.3160819]},"properties":{"state":"Assam","district":"Kamrup","confirmed":1}},{"type":"Feature","geometry":{"type":"Point","coordinates":[92.33695499999999,26.2528853]},"properties":{"state":"Assam","district":"Morigaon","confirmed":3}},{"type":"Feature","geometry":{"type":"Point","coordinates":[93.96233699999999,26.5238515]},"properties":{"state":"Assam","district":"Golaghat","confirmed":1}},{"type":"Feature","geometry":{"type":"Point","coordinates":[94.15137639999999,27.2063587]},"properties":{"state":"Assam","district":"Lakhimpur","confirmed":1}},{"type":"Feature","geometry":{"type":"Point","coordinates":[89.9743463,26.0206982]},"properties":{"state":"Assam","district":"Dhubri","confirmed":4}},{"type":"Feature","geometry":{"type":"Point","coordinates":[96.17391160000001,27.9039651]},"properties":{"state":"Arunachal Pradesh","district":"Lohit","confirmed":1}},{"type":"Feature","geometry":{"type":"Point","coordinates":[72.96672540000002,20.3228778]},"properties":{"state":"Dadra and Nagar Haveli","district":"Unknown","confirmed":1}},{"type":"Feature","geometry":{"type":"Point","coordinates":[91.63721500000001,23.5166711]},"properties":{"state":"Tripura","district":"Gomati","confirmed":1}},{"type":"Feature","geometry":{"type":"Point","coordinates":[-95.61362369999999,36.3114126]},"properties":{"state":"Unknown","district":"Unknown","confirmed":183}}]}